[
    {
        "category": "hospital",
        "name": "Ignace Deen National Hospital",
        "city": "Conakry",
        "district": "Kaloum",
        "founder": "State",
        "year_established": 1951,
        "coordinates": {
            "latitude": 9.512,
            "longitude": -13.707
        },
        "contact": {
            "phone": "+224 622 00 00 00",
            "email": "contact@ignacedeen.gn"
        },
        "services": ["Emergency", "Pediatrics", "Surgery", "Radiology"]
    },
    {
        "category": "hospital",
        "name": "Donka Hospital",
        "city": "Conakry",
        "district": "Dixinn",
        "founder": "State",
        "year_established": 1959,
        "coordinates": {
            "latitude": 9.531,
            "longitude": -13.680
        },
        "contact": {
            "phone": "+224 623 11 11 11",
            "email": "contact@donka.gn"
        },
        "services": ["Emergency", "Gynecology", "Dermatology", "Laboratory"]
    },
    {
        "category": "hospital",
        "name": "Pasteur Clinic",
        "city": "Conakry",
        "district": "Ratoma",
        "founder": "Individual",
        "year_established": 2002,
        "coordinates": {
            "latitude": 9.571,
            "longitude": -13.621
        },
        "contact": {
            "phone": "+224 624 22 22 22",
            "email": "info@clinique-pasteur.gn"
        },
        "services": ["General Consultations", "Maternity", "Cardiology"]
    },
    {
        "category" : "ecole",
        "name" : "Lycée 2 Octobre ",
        "city" : "conakry",
        "neighborhood" : "kaloum",
        "founder" : "etat",
        "year_of_foundation" : "1958",
        "coordinates" : {
            "latitude" : 9.511091,
            "longitude" : -13.7182829
        }
    },
    {
        "category" : "ecole",
        "name" : "Lycée Donka ",
        "city" : "conakry",
        "neighborhood" : "Donka",
        "founder" : "etat",
        "year_of_foundation" : "1960",
        "coordinates" : {
            "latitude" : 9.5402257,
            "longitude" : -13.6854998
        }
    },
    {
        "category" : "ecole",
        "name" : "École Primaire de Dixinn 1 ",
        "city" : "conakry",
        "neighborhood" : "Dixinn",
        "founder" : "etat",
        "year_of_foundation" : "1960",
        "coordinates" : {
            "latitude" : 9.5483851,
            "longitude" : -13.6770372
        }
    },
    {
        "category" : "ecole",
        "name" : "Lycee Ahmed sekou toure  ",
        "city" : "Labe",
        "neighborhood" : "Labe",
        "founder" : "privées",
        "year_of_foundation" : "1972",
        "coordinates" : {
            "latitude" : 9.5806351,
            "longitude" : -13.6199063
        }
    },
    {
        "category" : "ecole",
        "name" : "Lycee Alpha yaya Diallo de kankan ",
        "city" : "kankan",
        "neighborhood" : "kankan",
        "founder" : "etat",
        "year_of_foundation" : "1978",
        "coordinates" : {
            "latitude" : 10.3667419,
            "longitude" : -9.3097624
        }
    },
    {
        "category" : "ecole",
        "name" : "Lycee jean mermoz  ",
        "city" : "conakry",
        "neighborhood" : "Conakry",
        "founder" : "etat",
        "year_of_foundation" : "1980",
        "coordinates" : {
            "latitude" : 9.6002061,
            "longitude" :-13.6054553
        }
    },
    {
        "category" : "ecole",
        "name" : "École Nationale des Arts et Métiers ",
        "city" : "conakry",
        "neighborhood" : "kaloum",
        "founder" : "etat",
        "year_of_foundation" : "1965",
        "coordinates" : {
            "latitude" : 9.5252285,
            "longitude" : -13.6879142
        }
    },
    {
        "category" : "ecole",
        "name" : "Centre de Formation Professionnelle de Donka ",
        "city" : "conakry",
        "neighborhood" : "kaloum",
        "founder" : "etat",
        "year_of_foundation" : "1965",
        "coordinates" : {
            "latitude" : 9.537696,
            "longitude" : -13.6835888
        }
    }
    
    
]